{"meta":{"code":200,"requestId":"585792b5f594df0687194cd6"},"notifications":[{"type":"notificationTray","item":{"unreadCount":20}}],"response":{"venues":[{"id":"56738502498e114ae5da7b77","name":"Burger King","contact":{},"location":{"address":"Escario","lat":10.317905331263688,"lng":123.89623821190679,"labeledLatLngs":[{"label":"display","lat":10.317905331263688,"lng":123.89623821190679}],"distance":1642,"cc":"PH","city":"Cebu City","state":"Cebu","country":"Philippines","formattedAddress":["Escario","Cebu City","Cebu","Philippines"]},"categories":[{"id":"4bf58dd8d48988d16c941735","name":"Burger Joint","pluralName":"Burger Joints","shortName":"Burgers","icon":{"prefix":"https:\/\/ss3.4sqi.net\/img\/categories_v2\/food\/burger_","suffix":".png"},"primary":true}],"verified":false,"stats":{"checkinsCount":1051,"usersCount":568,"tipCount":6},"allowMenuUrlEdit":true,"beenHere":{"lastCheckinExpiredAt":0},"specials":{"count":0,"items":[]},"hereNow":{"count":1,"summary":"One other person is here","groups":[{"type":"others","name":"Other people here","count":1,"items":[]}]},"referralId":"v-1482134197","venueChains":[{"id":"556d12d9aceaff43eb090cdb"}],"hasPerk":false},{"id":"4ebcd1d1b6341bd788f3f14a","name":"Guadalupe","contact":{},"location":{"lat":10.322139179612263,"lng":123.88380501471552,"labeledLatLngs":[{"label":"display","lat":10.322139179612263,"lng":123.88380501471552}],"distance":504,"postalCode":"6000","cc":"PH","city":"Cebu City","state":"Cebu","country":"Philippines","formattedAddress":["6000 Cebu City","Cebu","Philippines"]},"categories":[{"id":"4f2a25ac4b909258e854f55f","name":"Neighborhood","pluralName":"Neighborhoods","shortName":"Neighborhood","icon":{"prefix":"https:\/\/ss3.4sqi.net\/img\/categories_v2\/parks_outdoors\/neighborhood_","suffix":".png"},"primary":true}],"verified":false,"stats":{"checkinsCount":5935,"usersCount":907,"tipCount":8},"venueRatingBlacklisted":true,"beenHere":{"lastCheckinExpiredAt":0},"specials":{"count":0,"items":[]},"hereNow":{"count":2,"summary":"2 people are here","groups":[{"type":"others","name":"Other people here","count":2,"items":[]}]},"referralId":"v-1482134197","venueChains":[],"hasPerk":false},{"id":"4da945b6cda1652a2b6fcf9f","name":"Cebu City","contact":{},"location":{"lat":10.30968374335227,"lng":123.89310121536253,"distance":1618,"postalCode":"6000","cc":"PH","city":"Cebu City","state":"Cebu City","country":"Philippines","formattedAddress":["6000 Cebu City","Cebu City","Philippines"]},"categories":[{"id":"50aa9e094b90af0d42d5de0d","name":"City","pluralName":"Cities","shortName":"City","icon":{"prefix":"https:\/\/ss3.4sqi.net\/img\/categories_v2\/parks_outdoors\/neighborhood_","suffix":".png"},"primary":true}],"verified":false,"stats":{"checkinsCount":134832,"usersCount":13583,"tipCount":93},"venueRatingBlacklisted":true,"beenHere":{"lastCheckinExpiredAt":0},"specials":{"count":0,"items":[]},"hereNow":{"count":5,"summary":"5 people are here","groups":[{"type":"others","name":"Other people here","count":5,"items":[]}]},"referralId":"v-1482134197","venueChains":[],"hasPerk":false},{"id":"4f2fe4f3e4b0dbffdec26363","name":"Nichols Park States Subdivision","contact":{},"location":{"address":"3 Viscount Road, Nichols Park","lat":10.317169530497432,"lng":123.88069372900927,"labeledLatLngs":[{"label":"display","lat":10.317169530497432,"lng":123.88069372900927}],"distance":146,"postalCode":"6000","cc":"PH","city":"Cebu City","state":"Cebu","country":"Philippines","formattedAddress":["3 Viscount Road, Nichols Park","6000 Cebu City","Cebu","Philippines"]},"categories":[{"id":"4f2a210c4b9023bd5841ed28","name":"Housing Development","pluralName":"Housing Developments","shortName":"Housing Development","icon":{"prefix":"https:\/\/ss3.4sqi.net\/img\/categories_v2\/building\/housingdevelopment_","suffix":".png"},"primary":true}],"verified":false,"stats":{"checkinsCount":562,"usersCount":126,"tipCount":1},"venueRatingBlacklisted":true,"beenHere":{"lastCheckinExpiredAt":0},"specials":{"count":0,"items":[]},"hereNow":{"count":0,"summary":"Nobody here","groups":[]},"referralId":"v-1482134197","venueChains":[],"hasPerk":false},{"id":"4fdeeef7e4b02cb4ed5d3dc2","name":"Nichols Park","contact":{},"location":{"address":"Nichols Park Guadalupe","lat":10.316279969029416,"lng":123.8814783713759,"labeledLatLngs":[{"label":"display","lat":10.316279969029416,"lng":123.8814783713759}],"distance":233,"postalCode":"6000","cc":"PH","city":"Cebu City","state":"Cebu","country":"Philippines","formattedAddress":["Nichols Park Guadalupe","6000 Cebu City","Cebu","Philippines"]},"categories":[{"id":"4f2a210c4b9023bd5841ed28","name":"Housing Development","pluralName":"Housing Developments","shortName":"Housing Development","icon":{"prefix":"https:\/\/ss3.4sqi.net\/img\/categories_v2\/building\/housingdevelopment_","suffix":".png"},"primary":true}],"verified":false,"stats":{"checkinsCount":275,"usersCount":77,"tipCount":1},"venueRatingBlacklisted":true,"beenHere":{"lastCheckinExpiredAt":0},"specials":{"count":0,"items":[]},"hereNow":{"count":0,"summary":"Nobody here","groups":[]},"referralId":"v-1482134197","venueChains":[],"hasPerk":false},{"id":"4fe2f417e4b0c7d06f3a8551","name":"Dimsum Break","contact":{},"location":{"address":"One Pavilion Mall","crossStreet":"R. Duterte St.","lat":10.315380464451732,"lng":123.88431719529781,"labeledLatLngs":[{"label":"display","lat":10.315380464451732,"lng":123.88431719529781}],"distance":472,"cc":"PH","city":"Cebu City","state":"Cebu","country":"Philippines","formattedAddress":["One Pavilion Mall (R. Duterte St.)","Cebu City","Cebu","Philippines"]},"categories":[{"id":"4bf58dd8d48988d145941735","name":"Chinese Restaurant","pluralName":"Chinese Restaurants","shortName":"Chinese","icon":{"prefix":"https:\/\/ss3.4sqi.net\/img\/categories_v2\/food\/asian_","suffix":".png"},"primary":true}],"verified":false,"stats":{"checkinsCount":931,"usersCount":384,"tipCount":7},"allowMenuUrlEdit":true,"beenHere":{"lastCheckinExpiredAt":0},"specials":{"count":0,"items":[]},"hereNow":{"count":0,"summary":"Nobody here","groups":[]},"referralId":"v-1482134197","venueChains":[],"hasPerk":false},{"id":"51ac032b498ed02974d6750f","name":"Alcordo Advertising","contact":{"phone":"+63322539146","formattedPhone":"+63 32 253 9146"},"location":{"address":"25-H Nichols Heights, Guadalupe, Cebu City","lat":10.317884895092567,"lng":123.88145112696112,"labeledLatLngs":[{"label":"display","lat":10.317884895092567,"lng":123.88145112696112}],"distance":58,"postalCode":"6000","cc":"PH","city":"Cebu City","state":"Cebu","country":"Philippines","formattedAddress":["25-H Nichols Heights, Guadalupe, Cebu City","6000 Cebu City","Cebu","Philippines"]},"categories":[{"id":"4eb1bea83b7b6f98df247e06","name":"Factory","pluralName":"Factories","shortName":"Factory","icon":{"prefix":"https:\/\/ss3.4sqi.net\/img\/categories_v2\/building\/factory_","suffix":".png"},"primary":true}],"verified":false,"stats":{"checkinsCount":28,"usersCount":7,"tipCount":0},"url":"http:\/\/www.alcordo-advertising.com","venueRatingBlacklisted":true,"beenHere":{"lastCheckinExpiredAt":0},"specials":{"count":0,"items":[]},"hereNow":{"count":0,"summary":"Nobody here","groups":[]},"referralId":"v-1482134197","venueChains":[],"hasPerk":false},{"id":"5058f8f1e4b06d30e8295778","name":"Pasadena Nichols Heights Guadalupe","contact":{},"location":{"lat":10.317947157487577,"lng":123.88324924107904,"labeledLatLngs":[{"label":"display","lat":10.317947157487577,"lng":123.88324924107904}],"distance":223,"cc":"PH","country":"Philippines","formattedAddress":["Philippines"]},"categories":[{"id":"4f2a210c4b9023bd5841ed28","name":"Housing Development","pluralName":"Housing Developments","shortName":"Housing Development","icon":{"prefix":"https:\/\/ss3.4sqi.net\/img\/categories_v2\/building\/housingdevelopment_","suffix":".png"},"primary":true}],"verified":false,"stats":{"checkinsCount":195,"usersCount":44,"tipCount":1},"venueRatingBlacklisted":true,"beenHere":{"lastCheckinExpiredAt":0},"specials":{"count":0,"items":[]},"hereNow":{"count":0,"summary":"Nobody here","groups":[]},"referralId":"v-1482134197","venueChains":[],"hasPerk":false},{"id":"52beaa88498e0c0d918ff415","name":"D' Voice KTV and Grill","contact":{},"location":{"address":"R. Duterte St., Banawa","lat":10.313456862360084,"lng":123.88008889596398,"labeledLatLngs":[{"label":"display","lat":10.313456862360084,"lng":123.88008889596398}],"distance":561,"postalCode":"6000","cc":"PH","city":"Cebu City","state":"Cebu","country":"Philippines","formattedAddress":["R. Duterte St., Banawa","6000 Cebu City","Cebu","Philippines"]},"categories":[{"id":"4bf58dd8d48988d1e5931735","name":"Music Venue","pluralName":"Music Venues","shortName":"Music Venue","icon":{"prefix":"https:\/\/ss3.4sqi.net\/img\/categories_v2\/arts_entertainment\/musicvenue_","suffix":".png"},"primary":true}],"verified":false,"stats":{"checkinsCount":952,"usersCount":577,"tipCount":15},"allowMenuUrlEdit":true,"beenHere":{"lastCheckinExpiredAt":0},"specials":{"count":0,"items":[]},"hereNow":{"count":0,"summary":"Nobody here","groups":[]},"referralId":"v-1482134197","venueChains":[],"hasPerk":false},{"id":"556c0e77498e61c8e9cefd09","name":"Suds Laundry Dry Clean","contact":{"phone":"+639255777837","formattedPhone":"+63 925 577 7837"},"location":{"address":"V. Rama Avenue, Guadalupe","lat":10.319218658317729,"lng":123.88278064501901,"labeledLatLngs":[{"label":"display","lat":10.319218658317729,"lng":123.88278064501901}],"distance":192,"cc":"PH","city":"Cebu City","state":"Cebu","country":"Philippines","formattedAddress":["V. Rama Avenue, Guadalupe","Cebu City","Cebu","Philippines"]},"categories":[{"id":"4bf58dd8d48988d1fc941735","name":"Laundry Service","pluralName":"Laundry Services","shortName":"Laundry","icon":{"prefix":"https:\/\/ss3.4sqi.net\/img\/categories_v2\/shops\/laundry_","suffix":".png"},"primary":true}],"verified":false,"stats":{"checkinsCount":27,"usersCount":7,"tipCount":0},"allowMenuUrlEdit":true,"beenHere":{"lastCheckinExpiredAt":0},"specials":{"count":0,"items":[]},"hereNow":{"count":0,"summary":"Nobody here","groups":[]},"referralId":"v-1482134197","venueChains":[],"hasPerk":false},{"id":"4bf282b982002d7fef9ad0bb","name":"Tajimaya Charcoal Grill","contact":{"facebook":"144817275531346","facebookUsername":"tajimaya","facebookName":"Tajimaya Yakiniku Restaurant"},"location":{"address":"The Crossroads","crossStreet":"Gov. M. Cuenco Ave.","lat":10.328098993499715,"lng":123.91014048408086,"labeledLatLngs":[{"label":"display","lat":10.328098993499715,"lng":123.91014048408086}],"distance":3344,"postalCode":"6000","cc":"PH","city":"Cebu City","state":"Cebu","country":"Philippines","formattedAddress":["The Crossroads (Gov. M. Cuenco Ave.)","6000 Cebu City","Cebu","Philippines"]},"categories":[{"id":"4bf58dd8d48988d111941735","name":"Japanese Restaurant","pluralName":"Japanese Restaurants","shortName":"Japanese","icon":{"prefix":"https:\/\/ss3.4sqi.net\/img\/categories_v2\/food\/japanese_","suffix":".png"},"primary":true}],"verified":false,"stats":{"checkinsCount":2966,"usersCount":1448,"tipCount":33},"allowMenuUrlEdit":true,"beenHere":{"lastCheckinExpiredAt":0},"specials":{"count":0,"items":[]},"hereNow":{"count":0,"summary":"Nobody here","groups":[]},"referralId":"v-1482134197","venueChains":[],"hasPerk":false},{"id":"556c0e1a498e7fd1542e2a6d","name":"Sud's Laundry Dryclean","contact":{"phone":"+639255777837","formattedPhone":"+63 925 577 7837"},"location":{"address":"V. Rama Avenue, Guadalupe","lat":10.317256818776668,"lng":123.8811405400639,"labeledLatLngs":[{"label":"display","lat":10.317256818776668,"lng":123.8811405400639}],"distance":124,"cc":"PH","city":"Cebu City","state":"Cebu","country":"Philippines","formattedAddress":["V. Rama Avenue, Guadalupe","Cebu City","Cebu","Philippines"]},"categories":[{"id":"4bf58dd8d48988d1fc941735","name":"Laundry Service","pluralName":"Laundry Services","shortName":"Laundry","icon":{"prefix":"https:\/\/ss3.4sqi.net\/img\/categories_v2\/shops\/laundry_","suffix":".png"},"primary":true}],"verified":false,"stats":{"checkinsCount":3,"usersCount":3,"tipCount":0},"allowMenuUrlEdit":true,"beenHere":{"lastCheckinExpiredAt":0},"specials":{"count":0,"items":[]},"hereNow":{"count":0,"summary":"Nobody here","groups":[]},"referralId":"v-1482134197","venueChains":[],"hasPerk":false},{"id":"4f21198de4b0c59297c1b72f","name":"Western Union Guadalupe","contact":{},"location":{"address":"guadalupe","crossStreet":"v. rama ave","lat":10.319059330393397,"lng":123.88207229761883,"labeledLatLngs":[{"label":"display","lat":10.319059330393397,"lng":123.88207229761883}],"distance":118,"postalCode":"6000","cc":"PH","city":"Cebu City","state":"Cebu","country":"Philippines","formattedAddress":["guadalupe (v. rama ave)","6000 Cebu City","Cebu","Philippines"]},"categories":[{"id":"4bf58dd8d48988d130941735","name":"Building","pluralName":"Buildings","shortName":"Building","icon":{"prefix":"https:\/\/ss3.4sqi.net\/img\/categories_v2\/building\/default_","suffix":".png"},"primary":true}],"verified":false,"stats":{"checkinsCount":15,"usersCount":10,"tipCount":0},"venueRatingBlacklisted":true,"beenHere":{"lastCheckinExpiredAt":0},"specials":{"count":0,"items":[]},"hereNow":{"count":0,"summary":"Nobody here","groups":[]},"referralId":"v-1482134197","venueChains":[],"hasPerk":false},{"id":"4f162639e4b09e81dd6a31f5","name":"Institute of Religion and Culture","contact":{},"location":{"address":"Kabajar St., Guadalupe","lat":10.320009511684027,"lng":123.88236653489162,"labeledLatLngs":[{"label":"display","lat":10.320009511684027,"lng":123.88236653489162}],"distance":219,"postalCode":"6000","cc":"PH","city":"Cebu City","state":"Cebu","country":"Philippines","formattedAddress":["Kabajar St., Guadalupe","6000 Cebu City","Cebu","Philippines"]},"categories":[{"id":"4bf58dd8d48988d1f8931735","name":"Bed & Breakfast","pluralName":"Bed & Breakfasts","shortName":"B & B","icon":{"prefix":"https:\/\/ss3.4sqi.net\/img\/categories_v2\/travel\/bedandbreakfast_","suffix":".png"},"primary":true}],"verified":false,"stats":{"checkinsCount":46,"usersCount":27,"tipCount":0},"allowMenuUrlEdit":true,"beenHere":{"lastCheckinExpiredAt":0},"specials":{"count":0,"items":[]},"hereNow":{"count":0,"summary":"Nobody here","groups":[]},"referralId":"v-1482134197","venueChains":[],"hasPerk":false},{"id":"4fc7956ce4b094e82220ebda","name":"Angels Burger","contact":{},"location":{"address":"Guadalupe","lat":10.319011375246735,"lng":123.88201236028155,"labeledLatLngs":[{"label":"display","lat":10.319011375246735,"lng":123.88201236028155}],"distance":110,"cc":"PH","country":"Philippines","formattedAddress":["Guadalupe","Philippines"]},"categories":[{"id":"4bf58dd8d48988d16c941735","name":"Burger Joint","pluralName":"Burger Joints","shortName":"Burgers","icon":{"prefix":"https:\/\/ss3.4sqi.net\/img\/categories_v2\/food\/burger_","suffix":".png"},"primary":true}],"verified":false,"stats":{"checkinsCount":9,"usersCount":7,"tipCount":0},"allowMenuUrlEdit":true,"beenHere":{"lastCheckinExpiredAt":0},"specials":{"count":0,"items":[]},"hereNow":{"count":0,"summary":"Nobody here","groups":[]},"referralId":"v-1482134197","venueChains":[],"hasPerk":false},{"id":"4f6bd4b2e4b03b575aaf5d84","name":"Caminade Pet shop","contact":{},"location":{"address":"R. Duterte St. Banawa","lat":10.317335167943407,"lng":123.8794731609534,"labeledLatLngs":[{"label":"display","lat":10.317335167943407,"lng":123.8794731609534}],"distance":225,"cc":"PH","city":"Cebu City","state":"Cebu","country":"Philippines","formattedAddress":["R. Duterte St. Banawa","Cebu City","Cebu","Philippines"]},"categories":[{"id":"4bf58dd8d48988d100951735","name":"Pet Store","pluralName":"Pet Stores","shortName":"Pet Store","icon":{"prefix":"https:\/\/ss3.4sqi.net\/img\/categories_v2\/shops\/pet_store_","suffix":".png"},"primary":true}],"verified":false,"stats":{"checkinsCount":106,"usersCount":39,"tipCount":1},"allowMenuUrlEdit":true,"beenHere":{"lastCheckinExpiredAt":0},"specials":{"count":0,"items":[]},"hereNow":{"count":0,"summary":"Nobody here","groups":[]},"referralId":"v-1482134197","venueChains":[],"hasPerk":false},{"id":"54780b95498ecc35f9737ddd","name":"Sitio Kabulakan","contact":{},"location":{"address":"Banawa, Sitio Kabulakan","lat":10.31671502674933,"lng":123.87987093713802,"labeledLatLngs":[{"label":"display","lat":10.31671502674933,"lng":123.87987093713802}],"distance":237,"postalCode":"6000","cc":"PH","city":"Cebu City","state":"Cebu","country":"Philippines","formattedAddress":["Banawa, Sitio Kabulakan","6000 Cebu City","Cebu","Philippines"]},"categories":[{"id":"4d954b06a243a5684965b473","name":"Residential Building (Apartment \/ Condo)","pluralName":"Residential Buildings (Apartments \/ Condos)","shortName":"Residential","icon":{"prefix":"https:\/\/ss3.4sqi.net\/img\/categories_v2\/building\/apartment_","suffix":".png"},"primary":true}],"verified":false,"stats":{"checkinsCount":146,"usersCount":7,"tipCount":0},"venueRatingBlacklisted":true,"beenHere":{"lastCheckinExpiredAt":0},"specials":{"count":0,"items":[]},"hereNow":{"count":0,"summary":"Nobody here","groups":[]},"referralId":"v-1482134197","venueChains":[],"hasPerk":false},{"id":"552a491b498e1e8662a7e61b","name":"Cabana Beach Club","contact":{},"location":{"address":"Panagsama","lat":10.320416,"lng":123.8803,"labeledLatLngs":[{"label":"display","lat":10.320416,"lng":123.8803}],"distance":250,"cc":"PH","city":"Moalboal","state":"Cebu","country":"Philippines","formattedAddress":["Panagsama","Moalboal","Cebu","Philippines"]},"categories":[{"id":"4bf58dd8d48988d1e2941735","name":"Beach","pluralName":"Beaches","shortName":"Beach","icon":{"prefix":"https:\/\/ss3.4sqi.net\/img\/categories_v2\/parks_outdoors\/beach_","suffix":".png"},"primary":true}],"verified":false,"stats":{"checkinsCount":1,"usersCount":1,"tipCount":0},"beenHere":{"lastCheckinExpiredAt":0},"specials":{"count":0,"items":[]},"hereNow":{"count":0,"summary":"Nobody here","groups":[]},"referralId":"v-1482134197","venueChains":[],"hasPerk":false},{"id":"575b68d7498e644527fb8f74","name":"Turf","contact":{},"location":{"lat":10.316778,"lng":123.879485,"labeledLatLngs":[{"label":"display","lat":10.316778,"lng":123.879485}],"distance":262,"cc":"PH","country":"Philippines","formattedAddress":["Philippines"]},"categories":[{"id":"4d954b06a243a5684965b473","name":"Residential Building (Apartment \/ Condo)","pluralName":"Residential Buildings (Apartments \/ Condos)","shortName":"Residential","icon":{"prefix":"https:\/\/ss3.4sqi.net\/img\/categories_v2\/building\/apartment_","suffix":".png"},"primary":true}],"verified":false,"stats":{"checkinsCount":36,"usersCount":2,"tipCount":0},"venueRatingBlacklisted":true,"beenHere":{"lastCheckinExpiredAt":0},"specials":{"count":0,"items":[]},"hereNow":{"count":0,"summary":"Nobody here","groups":[]},"referralId":"v-1482134197","venueChains":[],"hasPerk":false},{"id":"530ee3fd498eff876b9ce4fc","name":"Carcar United Footwear Manufacturing Association, Inc.","contact":{},"location":{"lat":10.320390683514558,"lng":123.88117323347072,"labeledLatLngs":[{"label":"display","lat":10.320390683514558,"lng":123.88117323347072}],"distance":225,"cc":"PH","country":"Philippines","formattedAddress":["Philippines"]},"categories":[{"id":"52f2ab2ebcbc57f1066b8b39","name":"Shoe Repair","pluralName":"Shoe Repair Shops","shortName":"Shoe Repair","icon":{"prefix":"https:\/\/ss3.4sqi.net\/img\/categories_v2\/shops\/apparel_shoestore_","suffix":".png"},"primary":true}],"verified":false,"stats":{"checkinsCount":23,"usersCount":21,"tipCount":0},"allowMenuUrlEdit":true,"beenHere":{"lastCheckinExpiredAt":0},"specials":{"count":0,"items":[]},"hereNow":{"count":0,"summary":"Nobody here","groups":[]},"referralId":"v-1482134197","venueChains":[],"hasPerk":false},{"id":"5493b362498ee220d8de9b11","name":"Eastland Estate","contact":{"phone":"+639223814925","formattedPhone":"+63 922 381 4925","twitter":"paultorniado"},"location":{"address":"Barangay Yati","lat":10.318065891247654,"lng":123.88337456287773,"labeledLatLngs":[{"label":"display","lat":10.318065891247654,"lng":123.88337456287773}],"distance":235,"postalCode":"6002","cc":"PH","city":"Cebu City","state":"Cebu City","country":"Philippines","formattedAddress":["Barangay Yati","6002 Cebu City","Cebu City","Philippines"]},"categories":[{"id":"4f2a210c4b9023bd5841ed28","name":"Housing Development","pluralName":"Housing Developments","shortName":"Housing Development","icon":{"prefix":"https:\/\/ss3.4sqi.net\/img\/categories_v2\/building\/housingdevelopment_","suffix":".png"},"primary":true}],"verified":false,"stats":{"checkinsCount":16,"usersCount":7,"tipCount":0},"venueRatingBlacklisted":true,"beenHere":{"lastCheckinExpiredAt":0},"specials":{"count":0,"items":[]},"hereNow":{"count":0,"summary":"Nobody here","groups":[]},"referralId":"v-1482134197","venueChains":[],"hasPerk":false},{"id":"5067b5c7e4b0f328e012315d","name":"Franciscan Sisters of the Sacred Hearts","contact":{},"location":{"address":"Kabajar St., Guadalupe","lat":10.320400892034655,"lng":123.88275884979548,"labeledLatLngs":[{"label":"display","lat":10.320400892034655,"lng":123.88275884979548}],"distance":280,"cc":"PH","city":"Cebu City","state":"Cebu","country":"Philippines","formattedAddress":["Kabajar St., Guadalupe","Cebu City","Cebu","Philippines"]},"categories":[{"id":"50328a8e91d4c4b30a586d6c","name":"Non-Profit","pluralName":"Non-Profits","shortName":"Non-Profit","icon":{"prefix":"https:\/\/ss3.4sqi.net\/img\/categories_v2\/building\/default_","suffix":".png"},"primary":true}],"verified":false,"stats":{"checkinsCount":27,"usersCount":13,"tipCount":1},"venueRatingBlacklisted":true,"beenHere":{"lastCheckinExpiredAt":0},"specials":{"count":0,"items":[]},"hereNow":{"count":0,"summary":"Nobody here","groups":[]},"referralId":"v-1482134197","venueChains":[],"hasPerk":false},{"id":"50d0525be4b0fda9eec39b36","name":"Aderan Hotel","contact":{},"location":{"address":"Sanson Road, Lahug, Cebu City","lat":10.316421835513209,"lng":123.87963663082586,"labeledLatLngs":[{"label":"display","lat":10.316421835513209,"lng":123.87963663082586}],"distance":279,"cc":"PH","country":"Philippines","formattedAddress":["Sanson Road, Lahug, Cebu City","Philippines"]},"categories":[{"id":"4d954b06a243a5684965b473","name":"Residential Building (Apartment \/ Condo)","pluralName":"Residential Buildings (Apartments \/ Condos)","shortName":"Residential","icon":{"prefix":"https:\/\/ss3.4sqi.net\/img\/categories_v2\/building\/apartment_","suffix":".png"},"primary":true}],"verified":false,"stats":{"checkinsCount":29,"usersCount":4,"tipCount":0},"venueRatingBlacklisted":true,"beenHere":{"lastCheckinExpiredAt":0},"specials":{"count":0,"items":[]},"hereNow":{"count":0,"summary":"Nobody here","groups":[]},"referralId":"v-1482134197","venueChains":[],"hasPerk":false},{"id":"4c7f493b4a03bfb76e36c9d4","name":"Crown Regency Hotel","contact":{},"location":{"address":"V. Rama, Guadalupe","crossStreet":"http:\/\/internetworks.tumblr.com\/","lat":10.318453794151088,"lng":123.88413193881975,"labeledLatLngs":[{"label":"display","lat":10.318453794151088,"lng":123.88413193881975}],"distance":315,"cc":"PH","city":"Cebu City","state":"Cebu","country":"Philippines","formattedAddress":["V. Rama, Guadalupe (http:\/\/internetworks.tumblr.com\/)","Cebu City","Cebu","Philippines"]},"categories":[{"id":"4bf58dd8d48988d1fa931735","name":"Hotel","pluralName":"Hotels","shortName":"Hotel","icon":{"prefix":"https:\/\/ss3.4sqi.net\/img\/categories_v2\/travel\/hotel_","suffix":".png"},"primary":true}],"verified":false,"stats":{"checkinsCount":330,"usersCount":175,"tipCount":3},"allowMenuUrlEdit":true,"beenHere":{"lastCheckinExpiredAt":0},"specials":{"count":0,"items":[]},"hereNow":{"count":0,"summary":"Nobody here","groups":[]},"referralId":"v-1482134197","venueChains":[],"hasPerk":false},{"id":"55101979498e4e86fdbe1afb","name":"Sambag 4, Guadalupe, Cebu City","contact":{},"location":{"address":"Sambag 4, Guadalupe","lat":10.320098485689638,"lng":123.88087354347435,"labeledLatLngs":[{"label":"display","lat":10.320098485689638,"lng":123.88087354347435}],"distance":197,"postalCode":"6000","cc":"PH","city":"Cebu City","state":"Cebu","country":"Philippines","formattedAddress":["Sambag 4, Guadalupe","6000 Cebu City","Cebu","Philippines"]},"categories":[{"id":"5032891291d4c4b30a586d68","name":"Assisted Living","pluralName":"Assisted Living","shortName":"Assisted Living","icon":{"prefix":"https:\/\/ss3.4sqi.net\/img\/categories_v2\/building\/apartment_","suffix":".png"},"primary":true}],"verified":false,"stats":{"checkinsCount":37,"usersCount":3,"tipCount":0},"venueRatingBlacklisted":true,"beenHere":{"lastCheckinExpiredAt":0},"specials":{"count":0,"items":[]},"hereNow":{"count":0,"summary":"Nobody here","groups":[]},"referralId":"v-1482134197","venueChains":[],"hasPerk":false},{"id":"50019cc4e4b077d34fce0749","name":"Pandora's box","contact":{},"location":{"lat":10.316873872449897,"lng":123.88127131362174,"labeledLatLngs":[{"label":"display","lat":10.316873872449897,"lng":123.88127131362174}],"distance":166,"cc":"PH","country":"Philippines","formattedAddress":["Philippines"]},"categories":[{"id":"4fbc1be21983fc883593e321","name":"Well","pluralName":"Wells","shortName":"Well","icon":{"prefix":"https:\/\/ss3.4sqi.net\/img\/categories_v2\/parks_outdoors\/well_","suffix":".png"},"primary":true}],"verified":false,"stats":{"checkinsCount":6,"usersCount":3,"tipCount":0},"venueRatingBlacklisted":true,"beenHere":{"lastCheckinExpiredAt":0},"specials":{"count":0,"items":[]},"hereNow":{"count":0,"summary":"Nobody here","groups":[]},"referralId":"v-1482134197","venueChains":[],"hasPerk":false},{"id":"52e55959498ea610a4e0db58","name":"Banawa, Cebu","contact":{},"location":{"lat":10.317979385088924,"lng":123.87976195753197,"labeledLatLngs":[{"label":"display","lat":10.317979385088924,"lng":123.87976195753197}],"distance":168,"cc":"PH","country":"Philippines","formattedAddress":["Philippines"]},"categories":[{"id":"4f2a210c4b9023bd5841ed28","name":"Housing Development","pluralName":"Housing Developments","shortName":"Housing Development","icon":{"prefix":"https:\/\/ss3.4sqi.net\/img\/categories_v2\/building\/housingdevelopment_","suffix":".png"},"primary":true}],"verified":false,"stats":{"checkinsCount":407,"usersCount":86,"tipCount":1},"venueRatingBlacklisted":true,"beenHere":{"lastCheckinExpiredAt":0},"specials":{"count":0,"items":[]},"hereNow":{"count":0,"summary":"Nobody here","groups":[]},"referralId":"v-1482134197","venueChains":[],"hasPerk":false},{"id":"53391120498ef9cde4aea04b","name":"Pungko Pungko sa Belvic","contact":{},"location":{"lat":10.316603838437695,"lng":123.879691120719,"labeledLatLngs":[{"label":"display","lat":10.316603838437695,"lng":123.879691120719}],"distance":260,"cc":"PH","country":"Philippines","formattedAddress":["Philippines"]},"categories":[{"id":"4bf58dd8d48988d1cb941735","name":"Food Truck","pluralName":"Food Trucks","shortName":"Food Truck","icon":{"prefix":"https:\/\/ss3.4sqi.net\/img\/categories_v2\/food\/streetfood_","suffix":".png"},"primary":true}],"verified":false,"stats":{"checkinsCount":57,"usersCount":32,"tipCount":0},"allowMenuUrlEdit":true,"beenHere":{"lastCheckinExpiredAt":0},"specials":{"count":0,"items":[]},"hereNow":{"count":0,"summary":"Nobody here","groups":[]},"referralId":"v-1482134197","venueChains":[],"hasPerk":false},{"id":"5246ba65498ed4486594ccc4","name":"Woodcrest","contact":{},"location":{"crossStreet":"Quijada Street, Guadalupe","lat":10.322064480258996,"lng":123.88036679272038,"labeledLatLngs":[{"label":"display","lat":10.322064480258996,"lng":123.88036679272038}],"distance":422,"cc":"PH","city":"Cebu City","state":"Cebu","country":"Philippines","formattedAddress":["Quijada Street, Guadalupe","Cebu City","Cebu","Philippines"]},"categories":[{"id":"4d954b06a243a5684965b473","name":"Residential Building (Apartment \/ Condo)","pluralName":"Residential Buildings (Apartments \/ Condos)","shortName":"Residential","icon":{"prefix":"https:\/\/ss3.4sqi.net\/img\/categories_v2\/building\/apartment_","suffix":".png"},"primary":true}],"verified":false,"stats":{"checkinsCount":417,"usersCount":50,"tipCount":0},"venueRatingBlacklisted":true,"beenHere":{"lastCheckinExpiredAt":0},"specials":{"count":0,"items":[]},"hereNow":{"count":0,"summary":"Nobody here","groups":[]},"referralId":"v-1482134197","venueChains":[],"hasPerk":false},{"id":"5010fa61e4b037378b8ef463","name":"Crown Regency Sarimanok Restaurant","contact":{},"location":{"lat":10.3199278,"lng":123.8821142,"labeledLatLngs":[{"label":"display","lat":10.3199278,"lng":123.8821142}],"distance":197,"cc":"PH","country":"Philippines","formattedAddress":["Philippines"]},"categories":[{"id":"4bf58dd8d48988d142941735","name":"Asian Restaurant","pluralName":"Asian Restaurants","shortName":"Asian","icon":{"prefix":"https:\/\/ss3.4sqi.net\/img\/categories_v2\/food\/asian_","suffix":".png"},"primary":true}],"verified":false,"stats":{"checkinsCount":4,"usersCount":3,"tipCount":0},"allowMenuUrlEdit":true,"beenHere":{"lastCheckinExpiredAt":0},"specials":{"count":0,"items":[]},"hereNow":{"count":0,"summary":"Nobody here","groups":[]},"referralId":"v-1482134197","venueChains":[],"hasPerk":false}],"confident":false}}