{"response":[{"name":"Metro Park Hotel - Cebu City","latitude":10.331292,"longitude":123.902601,"address":"La Guardia, Saint Lawrence Street, Cebu City","ratings":3.4},{"name":"Crowne Garden Hotel","latitude":10.329952,"longitude":123.901566,"address":"Salinas Drive, Cebu City","ratings":3.3},{"name":"Quest Hotel and Conference Center - Cebu","latitude":10.319371,"longitude":123.90315399999997,"address":"Archbishop Reyes Avenue, Cebu City","ratings":4.3},{"name":"Casa Verde","latitude":10.3282465,"longitude":123.90583229999993,"address":"The Walk, Cebu City","ratings":4.2},{"name":"Chowabungga!","latitude":10.3287558,"longitude":123.90733909999994,"address":"GF i1 Building, Jose Maria del Mar Street, Cebu City","ratings":4.3},{"name":"Crossroads","latitude":10.3282278,"longitude":123.91007960000002,"address":"Cebu City","ratings":4.3},{"name":"Neo Neo Grill House","latitude":10.3092177,"longitude":123.89500470000007,"address":"F. Ramos Street, Cebu City","ratings":4.2},{"name":"Pino","latitude":10.3318655,"longitude":123.8997544,"address":"Wilson Street, Cebu City","ratings":3.9},{"name":"10 Dove's Street Resto","latitude":10.3425713,"longitude":123.91880949999995,"address":"869 A. S. Fortuna Street, Mandaue City","ratings":4},{"name":"Kagura Japanese Restaurant","latitude":10.3425558,"longitude":123.91637679999997,"address":"Mandaue City","ratings":4.1},{"name":"Orange Brutus","latitude":10.318025,"longitude":123.90506200000004,"address":"Ayala, Cebu City"},{"name":"Alberto's Pizza","latitude":10.3089141,"longitude":123.89119589999996,"address":"15 B. Rodriguez Street, Cebu City","ratings":3.5},{"name":"Jollibee","latitude":10.3070781,"longitude":123.8943256,"address":"Osme√±a Boulevard, Cebu City","ratings":3.9},{"name":"STK ta Bay!","latitude":10.3131904,"longitude":123.89011430000005,"address":"6 A. Climaco Street, Cebu City","ratings":4.3},{"name":"ilaputi","latitude":10.328946,"longitude":123.90744300000006,"address":"I1 Building, Jose Maria Del Mar St.,, Cebu IT Park, Cebu City","ratings":3.7},{"name":"Golden Cowrie","latitude":10.3288352,"longitude":123.90251940000007,"address":"Cebu City","ratings":4},{"name":"Maya Mexican Restaurant","latitude":10.3280062,"longitude":123.91015160000006,"address":"Crossroads Mall, Cebu City","ratings":4},{"name":"Mcdonald'S Philippines","latitude":10.311485,"longitude":123.91724999999997,"address":"North Reclamation Area, Cebu City"},{"name":"Port Restaurant","latitude":10.3260185,"longitude":123.90522140000007,"address":"Salinas Drive, Lahug, Cebu City","ratings":3.6},{"name":"Chowking","latitude":10.3160014,"longitude":123.88571589999992,"address":"V Rama Avenue, Cebu City","ratings":3.5}]}